{
    "A1": {
        "A1_Corfu  Agios Stefanos (via Rekini)": {
            "direction": "Corfu -> Agios Stefanos",
            "stops": [
                {
                    "stopId": "S000",
                    "name_en": "Green Buses Station",
                    "name_gr": "Σταθμός Υπεραστικού ΚΤΕΛ",
                    "lat": 39.615962272858,
                    "lng": 19.912009202807
                },
                {
                    "stopId": "S001",
                    "name_en": "Old Green Buses Station",
                    "name_gr": "Παλιό Κ.Τ.Ε.Λ.",
                    "lat": 39.624118757697,
                    "lng": 19.914247504149
                },
                {
                    "stopId": "S002",
                    "name_en": "Customs",
                    "name_gr": "Τελωνείο",
                    "lat": 39.6258007995,
                    "lng": 19.910028481686
                },
                {
                    "stopId": "S003",
                    "name_en": "Port Authority",
                    "name_gr": "Λιμεναρχείο",
                    "lat": 39.626651814771,
                    "lng": 19.906241358171
                },
                {
                    "stopId": "S005",
                    "name_en": "First Commercial",
                    "name_gr": "Πρώτη εμπορικoύ",
                    "lat": 39.630216659106,
                    "lng": 19.895964313198
                },
                {
                    "stopId": "S010",
                    "name_en": "Bridge",
                    "name_gr": "Γέφυρα",
                    "lat": 39.630141687463,
                    "lng": 19.885374346487
                },
                {
                    "stopId": "S011",
                    "name_en": "Eforeia",
                    "name_gr": "Εφορεία",
                    "lat": 39.632144984254,
                    "lng": 19.882603654751
                },
                {
                    "stopId": "S013",
                    "name_en": "Magazaki",
                    "name_gr": "Μαγαζάκι",
                    "lat": 39.634944311931,
                    "lng": 19.876520443001
                },
                {
                    "stopId": "S014",
                    "name_en": "Agia Aikaterini",
                    "name_gr": "Αγία Αικατερίνη",
                    "lat": 39.636792285578,
                    "lng": 19.872301622471
                },
                {
                    "stopId": "S016",
                    "name_en": "Kineziko",
                    "name_gr": "Κινέζικο",
                    "lat": 39.640908688286,
                    "lng": 19.863689579189
                },
                {
                    "stopId": "S017",
                    "name_en": "Sotiriotissa",
                    "name_gr": "Σωτηριώτισα",
                    "lat": 39.645014211403,
                    "lng": 19.859445033241
                },
                {
                    "stopId": "S019",
                    "name_en": "Pipilas",
                    "name_gr": "Πίπιλας",
                    "lat": 39.644483387843,
                    "lng": 19.853423388427
                },
                {
                    "stopId": "S020",
                    "name_en": "Hospital",
                    "name_gr": "Νοσοκομείο",
                    "lat": 39.644718697163,
                    "lng": 19.850809566055
                },
                {
                    "stopId": "S021",
                    "name_en": "Priftis House",
                    "name_gr": "Σπίτι Πρίφτη",
                    "lat": 39.648295421693,
                    "lng": 19.846287803769
                },
                {
                    "stopId": "S022",
                    "name_en": "Gouvia",
                    "name_gr": "Γουβιά",
                    "lat": 39.651898772686,
                    "lng": 19.842679564211
                },
                {
                    "stopId": "S023",
                    "name_en": "Korkyra",
                    "name_gr": "Κόρκυρα",
                    "lat": 39.654940365038,
                    "lng": 19.840616604844
                },
                {
                    "stopId": "S024",
                    "name_en": "Govino Bay",
                    "name_gr": "Govino Bay",
                    "lat": 39.657733153837,
                    "lng": 19.839228097158
                },
                {
                    "stopId": "S112",
                    "name_en": "Tzavros Sidari",
                    "name_gr": "Τζάβρος Σιδάρι",
                    "lat": 39.662093218521,
                    "lng": 19.837762067016
                },
                {
                    "stopId": "S113",
                    "name_en": "Emeral",
                    "name_gr": "Emeral",
                    "lat": 39.665077687574,
                    "lng": 19.833808443202
                },
                {
                    "stopId": "S114",
                    "name_en": "Fiori",
                    "name_gr": "Φιόρι",
                    "lat": 39.668679043673,
                    "lng": 19.827635617066
                },
                {
                    "stopId": "S115",
                    "name_en": "Sgombou",
                    "name_gr": "Σγόμπου",
                    "lat": 39.670797136134,
                    "lng": 19.823556518391
                },
                {
                    "stopId": "S116",
                    "name_en": "Loutsiola",
                    "name_gr": "Λουτσιόλα",
                    "lat": 39.670736033772,
                    "lng": 19.81963940806
                },
                {
                    "stopId": "S117",
                    "name_en": "Mantra",
                    "name_gr": "Μάντρα",
                    "lat": 39.678770153717,
                    "lng": 19.808718750715
                },
                {
                    "stopId": "S118",
                    "name_en": "Giatrones",
                    "name_gr": "Γιατρόνες",
                    "lat": 39.680605528095,
                    "lng": 19.804501170593
                },
                {
                    "stopId": "S148",
                    "name_en": "Xylon",
                    "name_gr": "Ξύλον",
                    "lat": 39.690530112384,
                    "lng": 19.799685983612
                },
                {
                    "stopId": "S149",
                    "name_en": "Tsolou",
                    "name_gr": "Τσολού",
                    "lat": 39.694841802892,
                    "lng": 19.792941596851
                },
                {
                    "stopId": "S150",
                    "name_en": "Skripero Gas Station (Pamfilis)",
                    "name_gr": "Βενζινάδικο Σκριπερού (Παμφίλη)",
                    "lat": 39.697733546279,
                    "lng": 19.783293174237
                },
                {
                    "stopId": "S151",
                    "name_en": "Skripero 1",
                    "name_gr": "Σκριπερό 1",
                    "lat": 39.700124095118,
                    "lng": 19.774993017423
                },
                {
                    "stopId": "S152",
                    "name_en": "Skripero 2",
                    "name_gr": "Σκριπερό 2",
                    "lat": 39.700669422891,
                    "lng": 19.770477514207
                },
                {
                    "stopId": "S153",
                    "name_en": "Doukades Junction",
                    "name_gr": "Διασταύρωση Δουκάδων",
                    "lat": 39.700733819913,
                    "lng": 19.763548252241
                },
                {
                    "stopId": "S154",
                    "name_en": "Troubetas",
                    "name_gr": "Τρουμπέτας",
                    "lat": 39.706573670382,
                    "lng": 19.747552376418
                },
                {
                    "stopId": "S155",
                    "name_en": "Troubeta Junction",
                    "name_gr": "Διασταύρωση Τρουμπέτα",
                    "lat": 39.709864600649,
                    "lng": 19.744554282432
                },
                {
                    "stopId": "S156",
                    "name_en": "Choroepiscopoi 1",
                    "name_gr": "Χοροεπισκόποι 1",
                    "lat": 39.719352705115,
                    "lng": 19.747451353668
                },
                {
                    "stopId": "S157",
                    "name_en": "Choroepiscopoi",
                    "name_gr": "Χοροεπισκόποι 2 (Διασταύρωση)",
                    "lat": 39.720961091669,
                    "lng": 19.745568954982
                },
                {
                    "stopId": "S159",
                    "name_en": "Rekini",
                    "name_gr": "Ρεκίνι",
                    "lat": 39.740321819046,
                    "lng": 19.744054841453
                },
                {
                    "stopId": "S248",
                    "name_en": "Velonades Vouloti",
                    "name_gr": "Βελονάδες Βουλωτή",
                    "lat": 39.748784708191,
                    "lng": 19.717849069873
                },
                {
                    "stopId": "S249",
                    "name_en": "Velonades Junction",
                    "name_gr": "Διασταύρωση Βελονάδων",
                    "lat": 39.750901192454,
                    "lng": 19.715481390661
                },
                {
                    "stopId": "S251",
                    "name_en": "Velonades City Hall",
                    "name_gr": "Βελονάδες Δημαρχείο",
                    "lat": 39.753758501342,
                    "lng": 19.71748967612
                },
                {
                    "stopId": "S252",
                    "name_en": "Livadi Pagonas",
                    "name_gr": "Λιβάδι Παγώνας",
                    "lat": 39.767282692663,
                    "lng": 19.716585488194
                },
                {
                    "stopId": "S253",
                    "name_en": "Livadi",
                    "name_gr": "Λιβάδι",
                    "lat": 39.770378972555,
                    "lng": 19.71429672245
                },
                {
                    "stopId": "S254",
                    "name_en": "Karousades Junction",
                    "name_gr": "Διασταύρωση Καρουσάδων",
                    "lat": 39.776343664891,
                    "lng": 19.71135685835
                },
                {
                    "stopId": "S255",
                    "name_en": "Sidari Masoutis (Arillas Junction)",
                    "name_gr": "Σιδάρι Masoutis (Διαστύρωση Αρίλλας)",
                    "lat": 39.783298148455,
                    "lng": 19.708260235629
                },
                {
                    "stopId": "S270",
                    "name_en": "Katerina Gift Shop",
                    "name_gr": "Κατερίνα gift shop",
                    "lat": 39.788004013519,
                    "lng": 19.708573906583
                },
                {
                    "stopId": "S271",
                    "name_en": "Sidari (Paradise Hotel)",
                    "name_gr": "Σιδάρι (Paradise Hotel)",
                    "lat": 39.790549243245,
                    "lng": 19.708071103336
                },
                {
                    "stopId": "S272",
                    "name_en": "Sidari (The Three Little Pigs)",
                    "name_gr": "Σιδάρι (The Three Little Pigs)",
                    "lat": 39.792232522875,
                    "lng": 19.703345710204
                },
                {
                    "stopId": "S273",
                    "name_en": "Sidari Papadatou",
                    "name_gr": "Σιδάρι Παπαδάτου",
                    "lat": 39.791257751281,
                    "lng": 19.698875363207
                },
                {
                    "stopId": "S274",
                    "name_en": "Peroulades Junction",
                    "name_gr": "Διασταύρωση Περουλάδων",
                    "lat": 39.786504209176,
                    "lng": 19.690220190191
                },
                {
                    "stopId": "S280",
                    "name_en": "Mylos Avlioton",
                    "name_gr": "Μύλος Αυλιωτών",
                    "lat": 39.777503661557,
                    "lng": 19.677335812701
                },
                {
                    "stopId": "S284",
                    "name_en": "Elaiourgia Avlioton",
                    "name_gr": "Ελαιουργία Αυλιωτών",
                    "lat": 39.765980662511,
                    "lng": 19.659485116994
                },
                {
                    "stopId": "S539",
                    "name_en": "Staousa",
                    "name_gr": "Στάουσα",
                    "lat": 39.7546426,
                    "lng": 19.6523705
                },
                {
                    "stopId": "S288",
                    "name_en": "Agios Stefanos Bakery",
                    "name_gr": "Άγιος Στέφανος φούρνος",
                    "lat": 39.753805971284,
                    "lng": 19.645820934456
                },
                {
                    "stopId": "S289",
                    "name_en": "Agios Stefanos Hotel Nafsika",
                    "name_gr": "Άγιος Στέφανος Hotel Nafsika",
                    "lat": 39.753946914362,
                    "lng": 19.641237263919
                },
                {
                    "stopId": "S290",
                    "name_en": "Agios Stefanos Church",
                    "name_gr": "Άγιος Στέφανος εκκλησία",
                    "lat": 39.754076098549,
                    "lng": 19.639302862832
                }
            ]
        },
        "A1_Corfu  Agios Stefanos": {
            "direction": "Corfu -> Agios Stefanos 3",
            "stops": [
                {
                    "stopId": "S000",
                    "name_en": "Green Buses Station",
                    "name_gr": "Σταθμός Υπεραστικού ΚΤΕΛ",
                    "lat": 39.615962272858,
                    "lng": 19.912009202807
                },
                {
                    "stopId": "S001",
                    "name_en": "Old Green Buses Station",
                    "name_gr": "Παλιό Κ.Τ.Ε.Λ.",
                    "lat": 39.624118757697,
                    "lng": 19.914247504149
                },
                {
                    "stopId": "S002",
                    "name_en": "Customs",
                    "name_gr": "Τελωνείο",
                    "lat": 39.6258007995,
                    "lng": 19.910028481686
                },
                {
                    "stopId": "S003",
                    "name_en": "Port Authority",
                    "name_gr": "Λιμεναρχείο",
                    "lat": 39.626651814771,
                    "lng": 19.906241358171
                },
                {
                    "stopId": "S005",
                    "name_en": "First Commercial",
                    "name_gr": "Πρώτη εμπορικoύ",
                    "lat": 39.630216659106,
                    "lng": 19.895964313198
                },
                {
                    "stopId": "S010",
                    "name_en": "Bridge",
                    "name_gr": "Γέφυρα",
                    "lat": 39.630141687463,
                    "lng": 19.885374346487
                },
                {
                    "stopId": "S011",
                    "name_en": "Eforeia",
                    "name_gr": "Εφορεία",
                    "lat": 39.632144984254,
                    "lng": 19.882603654751
                },
                {
                    "stopId": "S013",
                    "name_en": "Magazaki",
                    "name_gr": "Μαγαζάκι",
                    "lat": 39.634944311931,
                    "lng": 19.876520443001
                },
                {
                    "stopId": "S014",
                    "name_en": "Agia Aikaterini",
                    "name_gr": "Αγία Αικατερίνη",
                    "lat": 39.636792285578,
                    "lng": 19.872301622471
                },
                {
                    "stopId": "S016",
                    "name_en": "Kineziko",
                    "name_gr": "Κινέζικο",
                    "lat": 39.640908688286,
                    "lng": 19.863689579189
                },
                {
                    "stopId": "S017",
                    "name_en": "Sotiriotissa",
                    "name_gr": "Σωτηριώτισα",
                    "lat": 39.645014211403,
                    "lng": 19.859445033241
                },
                {
                    "stopId": "S019",
                    "name_en": "Pipilas",
                    "name_gr": "Πίπιλας",
                    "lat": 39.644483387843,
                    "lng": 19.853423388427
                },
                {
                    "stopId": "S020",
                    "name_en": "Hospital",
                    "name_gr": "Νοσοκομείο",
                    "lat": 39.644718697163,
                    "lng": 19.850809566055
                },
                {
                    "stopId": "S021",
                    "name_en": "Priftis House",
                    "name_gr": "Σπίτι Πρίφτη",
                    "lat": 39.648295421693,
                    "lng": 19.846287803769
                },
                {
                    "stopId": "S022",
                    "name_en": "Gouvia",
                    "name_gr": "Γουβιά",
                    "lat": 39.651898772686,
                    "lng": 19.842679564211
                },
                {
                    "stopId": "S023",
                    "name_en": "Korkyra",
                    "name_gr": "Κόρκυρα",
                    "lat": 39.654940365038,
                    "lng": 19.840616604844
                },
                {
                    "stopId": "S024",
                    "name_en": "Govino Bay",
                    "name_gr": "Govino Bay",
                    "lat": 39.657733153837,
                    "lng": 19.839228097158
                },
                {
                    "stopId": "S112",
                    "name_en": "Tzavros Sidari",
                    "name_gr": "Τζάβρος Σιδάρι",
                    "lat": 39.662093218521,
                    "lng": 19.837762067016
                },
                {
                    "stopId": "S113",
                    "name_en": "Emeral",
                    "name_gr": "Emeral",
                    "lat": 39.665077687574,
                    "lng": 19.833808443202
                },
                {
                    "stopId": "S114",
                    "name_en": "Fiori",
                    "name_gr": "Φιόρι",
                    "lat": 39.668679043673,
                    "lng": 19.827635617066
                },
                {
                    "stopId": "S115",
                    "name_en": "Sgombou",
                    "name_gr": "Σγόμπου",
                    "lat": 39.670797136134,
                    "lng": 19.823556518391
                },
                {
                    "stopId": "S116",
                    "name_en": "Loutsiola",
                    "name_gr": "Λουτσιόλα",
                    "lat": 39.670736033772,
                    "lng": 19.81963940806
                },
                {
                    "stopId": "S117",
                    "name_en": "Mantra",
                    "name_gr": "Μάντρα",
                    "lat": 39.678770153717,
                    "lng": 19.808718750715
                },
                {
                    "stopId": "S118",
                    "name_en": "Giatrones",
                    "name_gr": "Γιατρόνες",
                    "lat": 39.680605528095,
                    "lng": 19.804501170593
                },
                {
                    "stopId": "S148",
                    "name_en": "Xylon",
                    "name_gr": "Ξύλον",
                    "lat": 39.690530112384,
                    "lng": 19.799685983612
                },
                {
                    "stopId": "S149",
                    "name_en": "Tsolou",
                    "name_gr": "Τσολού",
                    "lat": 39.694841802892,
                    "lng": 19.792941596851
                },
                {
                    "stopId": "S150",
                    "name_en": "Skripero Gas Station (Pamfilis)",
                    "name_gr": "Βενζινάδικο Σκριπερού (Παμφίλη)",
                    "lat": 39.697733546279,
                    "lng": 19.783293174237
                },
                {
                    "stopId": "S151",
                    "name_en": "Skripero 1",
                    "name_gr": "Σκριπερό 1",
                    "lat": 39.700124095118,
                    "lng": 19.774993017423
                },
                {
                    "stopId": "S152",
                    "name_en": "Skripero 2",
                    "name_gr": "Σκριπερό 2",
                    "lat": 39.700669422891,
                    "lng": 19.770477514207
                },
                {
                    "stopId": "S153",
                    "name_en": "Doukades Junction",
                    "name_gr": "Διασταύρωση Δουκάδων",
                    "lat": 39.700733819913,
                    "lng": 19.763548252241
                },
                {
                    "stopId": "S154",
                    "name_en": "Troubetas",
                    "name_gr": "Τρουμπέτας",
                    "lat": 39.706573670382,
                    "lng": 19.747552376418
                },
                {
                    "stopId": "S155",
                    "name_en": "Troubeta Junction",
                    "name_gr": "Διασταύρωση Τρουμπέτα",
                    "lat": 39.709864600649,
                    "lng": 19.744554282432
                },
                {
                    "stopId": "S200",
                    "name_en": "Kastellanoi Gyrou",
                    "name_gr": "Καστελλάνοι Γύρου",
                    "lat": 39.710282688223,
                    "lng": 19.733879873813
                },
                {
                    "stopId": "S201",
                    "name_en": "Arkadades",
                    "name_gr": "Αρκαδάδες",
                    "lat": 39.709589042516,
                    "lng": 19.73044280525
                },
                {
                    "stopId": "S215",
                    "name_en": "Agros City Hall",
                    "name_gr": "Αγρός Δημαρχείο",
                    "lat": 39.718114254487,
                    "lng": 19.726850845938
                },
                {
                    "stopId": "S216",
                    "name_en": "Agros School",
                    "name_gr": "Αγρός σχολείο",
                    "lat": 39.718958101565,
                    "lng": 19.726021210951
                },
                {
                    "stopId": "S217",
                    "name_en": "Agros Supermarket",
                    "name_gr": "Αγρός super market",
                    "lat": 39.720520487138,
                    "lng": 19.724903266396
                },
                {
                    "stopId": "S228",
                    "name_en": "Agros Fountain",
                    "name_gr": "Αγρός βρύση",
                    "lat": 39.722879569201,
                    "lng": 19.724133995172
                },
                {
                    "stopId": "S241",
                    "name_en": "Agios Athanasios Pharmacy",
                    "name_gr": "Άγιος Αθανάσιος φαρμακείο",
                    "lat": 39.724371523362,
                    "lng": 19.721398888499
                },
                {
                    "stopId": "S242",
                    "name_en": "Agios Athanasios 1",
                    "name_gr": "Άγιος Αθανάσιος 1",
                    "lat": 39.725573633191,
                    "lng": 19.721336817681
                },
                {
                    "stopId": "S243",
                    "name_en": "Agios Athanasios 2",
                    "name_gr": "Άγιος Αθανάσιος 2",
                    "lat": 39.729179042538,
                    "lng": 19.723443369863
                },
                {
                    "stopId": "S244",
                    "name_en": "Mesaria",
                    "name_gr": "Μεσαριά",
                    "lat": 39.739352339355,
                    "lng": 19.723870572069
                },
                {
                    "stopId": "S245",
                    "name_en": "Kopsocheilades Junction",
                    "name_gr": "Διασταύρωση  Κοψοχειλάδων",
                    "lat": 39.743909588077,
                    "lng": 19.721779631401
                },
                {
                    "stopId": "S247",
                    "name_en": "Psathylas",
                    "name_gr": "Ψαθύλας",
                    "lat": 39.745905112629,
                    "lng": 19.717620281992
                },
                {
                    "stopId": "S248",
                    "name_en": "Velonades Vouloti",
                    "name_gr": "Βελονάδες Βουλωτή",
                    "lat": 39.748784708191,
                    "lng": 19.717849069873
                },
                {
                    "stopId": "S249",
                    "name_en": "Velonades Junction",
                    "name_gr": "Διασταύρωση Βελονάδων",
                    "lat": 39.750901192454,
                    "lng": 19.715481390661
                },
                {
                    "stopId": "S251",
                    "name_en": "Velonades City Hall",
                    "name_gr": "Βελονάδες Δημαρχείο",
                    "lat": 39.753758501342,
                    "lng": 19.71748967612
                },
                {
                    "stopId": "S252",
                    "name_en": "Livadi Pagonas",
                    "name_gr": "Λιβάδι Παγώνας",
                    "lat": 39.767282692663,
                    "lng": 19.716585488194
                },
                {
                    "stopId": "S253",
                    "name_en": "Livadi",
                    "name_gr": "Λιβάδι",
                    "lat": 39.770378972555,
                    "lng": 19.71429672245
                },
                {
                    "stopId": "S254",
                    "name_en": "Karousades Junction",
                    "name_gr": "Διασταύρωση Καρουσάδων",
                    "lat": 39.776343664891,
                    "lng": 19.71135685835
                },
                {
                    "stopId": "S255",
                    "name_en": "Sidari Masoutis (Arillas Junction)",
                    "name_gr": "Σιδάρι Masoutis (Διαστύρωση Αρίλλας)",
                    "lat": 39.783298148455,
                    "lng": 19.708260235629
                },
                {
                    "stopId": "S270",
                    "name_en": "Katerina Gift Shop",
                    "name_gr": "Κατερίνα gift shop",
                    "lat": 39.788004013519,
                    "lng": 19.708573906583
                },
                {
                    "stopId": "S271",
                    "name_en": "Sidari (Paradise Hotel)",
                    "name_gr": "Σιδάρι (Paradise Hotel)",
                    "lat": 39.790549243245,
                    "lng": 19.708071103336
                },
                {
                    "stopId": "S272",
                    "name_en": "Sidari (The Three Little Pigs)",
                    "name_gr": "Σιδάρι (The Three Little Pigs)",
                    "lat": 39.792232522875,
                    "lng": 19.703345710204
                },
                {
                    "stopId": "S273",
                    "name_en": "Sidari Papadatou",
                    "name_gr": "Σιδάρι Παπαδάτου",
                    "lat": 39.791257751281,
                    "lng": 19.698875363207
                },
                {
                    "stopId": "S274",
                    "name_en": "Peroulades Junction",
                    "name_gr": "Διασταύρωση Περουλάδων",
                    "lat": 39.786504209176,
                    "lng": 19.690220190191
                },
                {
                    "stopId": "S278",
                    "name_en": "Peroulades",
                    "name_gr": "Περουλάδες",
                    "lat": 39.785513712411,
                    "lng": 19.674928253494
                },
                {
                    "stopId": "S279",
                    "name_en": "Peroulades School",
                    "name_gr": "Περουλάδες Σχολείο",
                    "lat": 39.788079858522,
                    "lng": 19.673077844122
                },
                {
                    "stopId": "S278R",
                    "name_en": "Peroulades",
                    "name_gr": "Περουλάδες",
                    "lat": 39.785404716227,
                    "lng": 19.674944311912
                },
                {
                    "stopId": "S274R",
                    "name_en": "Peroulades Junction",
                    "name_gr": "Διασταύρωση Περουλάδων",
                    "lat": 39.786313518435,
                    "lng": 19.690378719113
                },
                {
                    "stopId": "S280",
                    "name_en": "Mylos Avlioton",
                    "name_gr": "Μύλος Αυλιωτών",
                    "lat": 39.777503661557,
                    "lng": 19.677335812701
                },
                {
                    "stopId": "S281",
                    "name_en": "Avliotes 1",
                    "name_gr": "Αυλιώτες 1",
                    "lat": 39.778121966729,
                    "lng": 19.664585297957
                },
                {
                    "stopId": "S282",
                    "name_en": "Avliotes Center",
                    "name_gr": "Αυλιώτες κέντρο",
                    "lat": 39.777131988642,
                    "lng": 19.662397845972
                },
                {
                    "stopId": "S538",
                    "name_en": "Avliotes 2",
                    "name_gr": "Αυλιώτες 2",
                    "lat": 39.7755574,
                    "lng": 19.6613644
                },
                {
                    "stopId": "S283",
                    "name_en": "Avliotes 3",
                    "name_gr": "Αυλιώτες 3",
                    "lat": 39.774279930375,
                    "lng": 19.660321595741
                },
                {
                    "stopId": "S284",
                    "name_en": "Elaiourgia Avlioton",
                    "name_gr": "Ελαιουργία Αυλιωτών",
                    "lat": 39.765980662511,
                    "lng": 19.659485116994
                },
                {
                    "stopId": "S285",
                    "name_en": "Agios Stefanos Romanza Hotel",
                    "name_gr": "Άγιος Στέφανος Romanza Hotel",
                    "lat": 39.759513618148,
                    "lng": 19.64679708251
                },
                {
                    "stopId": "S286",
                    "name_en": "Agios Stefanos Kapetanios Apartments",
                    "name_gr": "Άγιος Στέφανος Kapetanios Apartments",
                    "lat": 39.758232546448,
                    "lng": 19.64622085501
                },
                {
                    "stopId": "S287",
                    "name_en": "Agios Stefanos Sunset studios",
                    "name_gr": "Άγιος Στέφανος Sunset studios",
                    "lat": 39.7561906,
                    "lng": 19.6463001
                },
                {
                    "stopId": "S288",
                    "name_en": "Agios Stefanos Bakery",
                    "name_gr": "Άγιος Στέφανος φούρνος",
                    "lat": 39.753805971284,
                    "lng": 19.645820934456
                },
                {
                    "stopId": "S289",
                    "name_en": "Agios Stefanos Hotel Nafsika",
                    "name_gr": "Άγιος Στέφανος Hotel Nafsika",
                    "lat": 39.753946914362,
                    "lng": 19.641237263919
                },
                {
                    "stopId": "S290",
                    "name_en": "Agios Stefanos Church",
                    "name_gr": "Άγιος Στέφανος εκκλησία",
                    "lat": 39.754076098549,
                    "lng": 19.639302862832
                },
                {
                    "stopId": "S291",
                    "name_en": "Agios Stefanos Port",
                    "name_gr": "Άγιος Στέφανος λιμάνι",
                    "lat": 39.752451030563,
                    "lng": 19.632453980044
                }
            ]
        },
        "A1_Corfu  Agios Stefanos (via Velonades)": {
            "direction": "Corfu -> Agios Stefanos",
            "stops": [
                {
                    "stopId": "S000",
                    "name_en": "Green Buses Station",
                    "name_gr": "Σταθμός Υπεραστικού ΚΤΕΛ",
                    "lat": 39.615962272858,
                    "lng": 19.912009202807
                },
                {
                    "stopId": "S001",
                    "name_en": "Old Green Buses Station",
                    "name_gr": "Παλιό Κ.Τ.Ε.Λ.",
                    "lat": 39.624118757697,
                    "lng": 19.914247504149
                },
                {
                    "stopId": "S002",
                    "name_en": "Customs",
                    "name_gr": "Τελωνείο",
                    "lat": 39.6258007995,
                    "lng": 19.910028481686
                },
                {
                    "stopId": "S003",
                    "name_en": "Port Authority",
                    "name_gr": "Λιμεναρχείο",
                    "lat": 39.626651814771,
                    "lng": 19.906241358171
                },
                {
                    "stopId": "S005",
                    "name_en": "First Commercial",
                    "name_gr": "Πρώτη εμπορικoύ",
                    "lat": 39.630216659106,
                    "lng": 19.895964313198
                },
                {
                    "stopId": "S010",
                    "name_en": "Bridge",
                    "name_gr": "Γέφυρα",
                    "lat": 39.630141687463,
                    "lng": 19.885374346487
                },
                {
                    "stopId": "S011",
                    "name_en": "Eforeia",
                    "name_gr": "Εφορεία",
                    "lat": 39.632144984254,
                    "lng": 19.882603654751
                },
                {
                    "stopId": "S013",
                    "name_en": "Magazaki",
                    "name_gr": "Μαγαζάκι",
                    "lat": 39.634944311931,
                    "lng": 19.876520443001
                },
                {
                    "stopId": "S014",
                    "name_en": "Agia Aikaterini",
                    "name_gr": "Αγία Αικατερίνη",
                    "lat": 39.636792285578,
                    "lng": 19.872301622471
                },
                {
                    "stopId": "S016",
                    "name_en": "Kineziko",
                    "name_gr": "Κινέζικο",
                    "lat": 39.640908688286,
                    "lng": 19.863689579189
                },
                {
                    "stopId": "S017",
                    "name_en": "Sotiriotissa",
                    "name_gr": "Σωτηριώτισα",
                    "lat": 39.645014211403,
                    "lng": 19.859445033241
                },
                {
                    "stopId": "S019",
                    "name_en": "Pipilas",
                    "name_gr": "Πίπιλας",
                    "lat": 39.644483387843,
                    "lng": 19.853423388427
                },
                {
                    "stopId": "S020",
                    "name_en": "Hospital",
                    "name_gr": "Νοσοκομείο",
                    "lat": 39.644718697163,
                    "lng": 19.850809566055
                },
                {
                    "stopId": "S021",
                    "name_en": "Priftis House",
                    "name_gr": "Σπίτι Πρίφτη",
                    "lat": 39.648295421693,
                    "lng": 19.846287803769
                },
                {
                    "stopId": "S022",
                    "name_en": "Gouvia",
                    "name_gr": "Γουβιά",
                    "lat": 39.651898772686,
                    "lng": 19.842679564211
                },
                {
                    "stopId": "S023",
                    "name_en": "Korkyra",
                    "name_gr": "Κόρκυρα",
                    "lat": 39.654940365038,
                    "lng": 19.840616604844
                },
                {
                    "stopId": "S024",
                    "name_en": "Govino Bay",
                    "name_gr": "Govino Bay",
                    "lat": 39.657733153837,
                    "lng": 19.839228097158
                },
                {
                    "stopId": "S112",
                    "name_en": "Tzavros Sidari",
                    "name_gr": "Τζάβρος Σιδάρι",
                    "lat": 39.662093218521,
                    "lng": 19.837762067016
                },
                {
                    "stopId": "S113",
                    "name_en": "Emeral",
                    "name_gr": "Emeral",
                    "lat": 39.665077687574,
                    "lng": 19.833808443202
                },
                {
                    "stopId": "S114",
                    "name_en": "Fiori",
                    "name_gr": "Φιόρι",
                    "lat": 39.668679043673,
                    "lng": 19.827635617066
                },
                {
                    "stopId": "S115",
                    "name_en": "Sgombou",
                    "name_gr": "Σγόμπου",
                    "lat": 39.670797136134,
                    "lng": 19.823556518391
                },
                {
                    "stopId": "S116",
                    "name_en": "Loutsiola",
                    "name_gr": "Λουτσιόλα",
                    "lat": 39.670736033772,
                    "lng": 19.81963940806
                },
                {
                    "stopId": "S117",
                    "name_en": "Mantra",
                    "name_gr": "Μάντρα",
                    "lat": 39.678770153717,
                    "lng": 19.808718750715
                },
                {
                    "stopId": "S118",
                    "name_en": "Giatrones",
                    "name_gr": "Γιατρόνες",
                    "lat": 39.680605528095,
                    "lng": 19.804501170593
                },
                {
                    "stopId": "S148",
                    "name_en": "Xylon",
                    "name_gr": "Ξύλον",
                    "lat": 39.690530112384,
                    "lng": 19.799685983612
                },
                {
                    "stopId": "S149",
                    "name_en": "Tsolou",
                    "name_gr": "Τσολού",
                    "lat": 39.694841802892,
                    "lng": 19.792941596851
                },
                {
                    "stopId": "S150",
                    "name_en": "Skripero Gas Station (Pamfilis)",
                    "name_gr": "Βενζινάδικο Σκριπερού (Παμφίλη)",
                    "lat": 39.697733546279,
                    "lng": 19.783293174237
                },
                {
                    "stopId": "S151",
                    "name_en": "Skripero 1",
                    "name_gr": "Σκριπερό 1",
                    "lat": 39.700124095118,
                    "lng": 19.774993017423
                },
                {
                    "stopId": "S152",
                    "name_en": "Skripero 2",
                    "name_gr": "Σκριπερό 2",
                    "lat": 39.700669422891,
                    "lng": 19.770477514207
                },
                {
                    "stopId": "S153",
                    "name_en": "Doukades Junction",
                    "name_gr": "Διασταύρωση Δουκάδων",
                    "lat": 39.700733819913,
                    "lng": 19.763548252241
                },
                {
                    "stopId": "S154",
                    "name_en": "Troubetas",
                    "name_gr": "Τρουμπέτας",
                    "lat": 39.706573670382,
                    "lng": 19.747552376418
                },
                {
                    "stopId": "S155",
                    "name_en": "Troubeta Junction",
                    "name_gr": "Διασταύρωση Τρουμπέτα",
                    "lat": 39.709864600649,
                    "lng": 19.744554282432
                },
                {
                    "stopId": "S200",
                    "name_en": "Kastellanoi Gyrou",
                    "name_gr": "Καστελλάνοι Γύρου",
                    "lat": 39.710282688223,
                    "lng": 19.733879873813
                },
                {
                    "stopId": "S201",
                    "name_en": "Arkadades",
                    "name_gr": "Αρκαδάδες",
                    "lat": 39.709589042516,
                    "lng": 19.73044280525
                },
                {
                    "stopId": "S215",
                    "name_en": "Agros City Hall",
                    "name_gr": "Αγρός Δημαρχείο",
                    "lat": 39.718114254487,
                    "lng": 19.726850845938
                },
                {
                    "stopId": "S216",
                    "name_en": "Agros School",
                    "name_gr": "Αγρός σχολείο",
                    "lat": 39.718958101565,
                    "lng": 19.726021210951
                },
                {
                    "stopId": "S217",
                    "name_en": "Agros Supermarket",
                    "name_gr": "Αγρός super market",
                    "lat": 39.720520487138,
                    "lng": 19.724903266396
                },
                {
                    "stopId": "S228",
                    "name_en": "Agros Fountain",
                    "name_gr": "Αγρός βρύση",
                    "lat": 39.722879569201,
                    "lng": 19.724133995172
                },
                {
                    "stopId": "S241",
                    "name_en": "Agios Athanasios Pharmacy",
                    "name_gr": "Άγιος Αθανάσιος φαρμακείο",
                    "lat": 39.724371523362,
                    "lng": 19.721398888499
                },
                {
                    "stopId": "S242",
                    "name_en": "Agios Athanasios 1",
                    "name_gr": "Άγιος Αθανάσιος 1",
                    "lat": 39.725573633191,
                    "lng": 19.721336817681
                },
                {
                    "stopId": "S243",
                    "name_en": "Agios Athanasios 2",
                    "name_gr": "Άγιος Αθανάσιος 2",
                    "lat": 39.729179042538,
                    "lng": 19.723443369863
                },
                {
                    "stopId": "S244",
                    "name_en": "Mesaria",
                    "name_gr": "Μεσαριά",
                    "lat": 39.739352339355,
                    "lng": 19.723870572069
                },
                {
                    "stopId": "S245",
                    "name_en": "Kopsocheilades Junction",
                    "name_gr": "Διασταύρωση  Κοψοχειλάδων",
                    "lat": 39.743909588077,
                    "lng": 19.721779631401
                },
                {
                    "stopId": "S247",
                    "name_en": "Psathylas",
                    "name_gr": "Ψαθύλας",
                    "lat": 39.745905112629,
                    "lng": 19.717620281992
                },
                {
                    "stopId": "S248",
                    "name_en": "Velonades Vouloti",
                    "name_gr": "Βελονάδες Βουλωτή",
                    "lat": 39.748784708191,
                    "lng": 19.717849069873
                },
                {
                    "stopId": "S249",
                    "name_en": "Velonades Junction",
                    "name_gr": "Διασταύρωση Βελονάδων",
                    "lat": 39.750901192454,
                    "lng": 19.715481390661
                },
                {
                    "stopId": "S250",
                    "name_en": "Velonades",
                    "name_gr": "Βελονάδες",
                    "lat": 39.752262724231,
                    "lng": 19.710163077457
                },
                {
                    "stopId": "S251",
                    "name_en": "Velonades City Hall",
                    "name_gr": "Βελονάδες Δημαρχείο",
                    "lat": 39.753758501342,
                    "lng": 19.71748967612
                },
                {
                    "stopId": "S252",
                    "name_en": "Livadi Pagonas",
                    "name_gr": "Λιβάδι Παγώνας",
                    "lat": 39.767282692663,
                    "lng": 19.716585488194
                },
                {
                    "stopId": "S253",
                    "name_en": "Livadi",
                    "name_gr": "Λιβάδι",
                    "lat": 39.770378972555,
                    "lng": 19.71429672245
                },
                {
                    "stopId": "S254",
                    "name_en": "Karousades Junction",
                    "name_gr": "Διασταύρωση Καρουσάδων",
                    "lat": 39.776343664891,
                    "lng": 19.71135685835
                },
                {
                    "stopId": "S255",
                    "name_en": "Sidari Masoutis (Arillas Junction)",
                    "name_gr": "Σιδάρι Masoutis (Διαστύρωση Αρίλλας)",
                    "lat": 39.783298148455,
                    "lng": 19.708260235629
                },
                {
                    "stopId": "S270",
                    "name_en": "Katerina Gift Shop",
                    "name_gr": "Κατερίνα gift shop",
                    "lat": 39.788004013519,
                    "lng": 19.708573906583
                },
                {
                    "stopId": "S271",
                    "name_en": "Sidari (Paradise Hotel)",
                    "name_gr": "Σιδάρι (Paradise Hotel)",
                    "lat": 39.790549243245,
                    "lng": 19.708071103336
                },
                {
                    "stopId": "S272",
                    "name_en": "Sidari (The Three Little Pigs)",
                    "name_gr": "Σιδάρι (The Three Little Pigs)",
                    "lat": 39.792232522875,
                    "lng": 19.703345710204
                },
                {
                    "stopId": "S276",
                    "name_en": "Melitsa",
                    "name_gr": "Μελίτσα",
                    "lat": 39.79460234442,
                    "lng": 19.697574785373
                },
                {
                    "stopId": "S278",
                    "name_en": "Peroulades",
                    "name_gr": "Περουλάδες",
                    "lat": 39.785513712411,
                    "lng": 19.674928253494
                },
                {
                    "stopId": "S279",
                    "name_en": "Peroulades School",
                    "name_gr": "Περουλάδες Σχολείο",
                    "lat": 39.788079858522,
                    "lng": 19.673077844122
                },
                {
                    "stopId": "S278R",
                    "name_en": "Peroulades",
                    "name_gr": "Περουλάδες",
                    "lat": 39.785404716227,
                    "lng": 19.674944311912
                },
                {
                    "stopId": "S274R",
                    "name_en": "Peroulades Junction",
                    "name_gr": "Διασταύρωση Περουλάδων",
                    "lat": 39.786313518435,
                    "lng": 19.690378719113
                },
                {
                    "stopId": "S280",
                    "name_en": "Mylos Avlioton",
                    "name_gr": "Μύλος Αυλιωτών",
                    "lat": 39.777503661557,
                    "lng": 19.677335812701
                },
                {
                    "stopId": "S281",
                    "name_en": "Avliotes 1",
                    "name_gr": "Αυλιώτες 1",
                    "lat": 39.778121966729,
                    "lng": 19.664585297957
                },
                {
                    "stopId": "S282",
                    "name_en": "Avliotes Center",
                    "name_gr": "Αυλιώτες κέντρο",
                    "lat": 39.777131988642,
                    "lng": 19.662397845972
                },
                {
                    "stopId": "S538",
                    "name_en": "Avliotes 2",
                    "name_gr": "Αυλιώτες 2",
                    "lat": 39.7755574,
                    "lng": 19.6613644
                },
                {
                    "stopId": "S283",
                    "name_en": "Avliotes 3",
                    "name_gr": "Αυλιώτες 3",
                    "lat": 39.774279930375,
                    "lng": 19.660321595741
                },
                {
                    "stopId": "S284",
                    "name_en": "Elaiourgia Avlioton",
                    "name_gr": "Ελαιουργία Αυλιωτών",
                    "lat": 39.765980662511,
                    "lng": 19.659485116994
                },
                {
                    "stopId": "S539",
                    "name_en": "Staousa",
                    "name_gr": "Στάουσα",
                    "lat": 39.7546426,
                    "lng": 19.6523705
                },
                {
                    "stopId": "S288",
                    "name_en": "Agios Stefanos Bakery",
                    "name_gr": "Άγιος Στέφανος φούρνος",
                    "lat": 39.753805971284,
                    "lng": 19.645820934456
                },
                {
                    "stopId": "S289",
                    "name_en": "Agios Stefanos Hotel Nafsika",
                    "name_gr": "Άγιος Στέφανος Hotel Nafsika",
                    "lat": 39.753946914362,
                    "lng": 19.641237263919
                },
                {
                    "stopId": "S290",
                    "name_en": "Agios Stefanos Church",
                    "name_gr": "Άγιος Στέφανος εκκλησία",
                    "lat": 39.754076098549,
                    "lng": 19.639302862832
                },
                {
                    "stopId": "S291",
                    "name_en": "Agios Stefanos Port",
                    "name_gr": "Άγιος Στέφανος λιμάνι",
                    "lat": 39.752451030563,
                    "lng": 19.632453980044
                }
            ]
        },
        "A1_Agios Stefanos  Corfu (via Agros and port)": {
            "direction": "Corfu -> Via Agros",
            "stops": [
                {
                    "stopId": "S290R",
                    "name_en": "Agios Stefanos Church",
                    "name_gr": "Άγιος Στέφανος εκκλησία",
                    "lat": 39.7540191,
                    "lng": 19.6395078
                },
                {
                    "stopId": "S289R",
                    "name_en": "Agios Stefanos Hotel Nafsika",
                    "name_gr": "Άγιος Στέφανος Hotel Nafsika",
                    "lat": 39.753898207528,
                    "lng": 19.641462597292
                },
                {
                    "stopId": "S288R",
                    "name_en": "Agios Stefanos Bakery",
                    "name_gr": "Άγιος Στέφανος φούρνος",
                    "lat": 39.753809100869,
                    "lng": 19.645968908774
                },
                {
                    "stopId": "S287R",
                    "name_en": "Agios Stefanos Sunset studios",
                    "name_gr": "Άγιος Στέφανος Sunset studios",
                    "lat": 39.756105767659,
                    "lng": 19.646341131353
                },
                {
                    "stopId": "S286R",
                    "name_en": "Agios Stefanos Kapetanios Apartments",
                    "name_gr": "Άγιος Στέφανος Kapetanios Apartments",
                    "lat": 39.758137615208,
                    "lng": 19.646294750338
                },
                {
                    "stopId": "S285R",
                    "name_en": "Agios Stefanos Romanza Hotel",
                    "name_gr": "Άγιος Στέφανος Romanza Hotel",
                    "lat": 39.759392994186,
                    "lng": 19.646836310515
                },
                {
                    "stopId": "S284R",
                    "name_en": "Elaiourgia Avlioton",
                    "name_gr": "Ελαιουργία Αυλιωτών",
                    "lat": 39.765991425753,
                    "lng": 19.659645007719
                },
                {
                    "stopId": "S283R",
                    "name_en": "Avliotes 3",
                    "name_gr": "Αυλιώτες 3",
                    "lat": 39.774178005337,
                    "lng": 19.660463853832
                },
                {
                    "stopId": "S538",
                    "name_en": "Avliotes 2",
                    "name_gr": "Αυλιώτες 2",
                    "lat": 39.7755574,
                    "lng": 19.6613644
                },
                {
                    "stopId": "S282R",
                    "name_en": "Avliotes Center",
                    "name_gr": "Αυλιώτες κέντρο",
                    "lat": 39.7771639,
                    "lng": 19.6623328
                },
                {
                    "stopId": "S281R",
                    "name_en": "Avliotes 1",
                    "name_gr": "Αυλιώτες 1",
                    "lat": 39.778049677266,
                    "lng": 19.66462684006
                },
                {
                    "stopId": "S280R",
                    "name_en": "Mylos Avlioton",
                    "name_gr": "Μύλος Αυλιωτών",
                    "lat": 39.777393865176,
                    "lng": 19.677330439493
                },
                {
                    "stopId": "S274R",
                    "name_en": "Peroulades Junction",
                    "name_gr": "Διασταύρωση Περουλάδων",
                    "lat": 39.786313518435,
                    "lng": 19.690378719113
                },
                {
                    "stopId": "S278",
                    "name_en": "Peroulades",
                    "name_gr": "Περουλάδες",
                    "lat": 39.785513712411,
                    "lng": 19.674928253494
                },
                {
                    "stopId": "S279R",
                    "name_en": "Peroulades School",
                    "name_gr": "Περουλάδες Σχολείο",
                    "lat": 39.788005306533,
                    "lng": 19.672931124844
                },
                {
                    "stopId": "S278R",
                    "name_en": "Peroulades",
                    "name_gr": "Περουλάδες",
                    "lat": 39.785404716227,
                    "lng": 19.674944311912
                },
                {
                    "stopId": "S277R",
                    "name_en": "Melitsas Junction",
                    "name_gr": "Διασταύρωση Μελίτσας",
                    "lat": 39.786941654119,
                    "lng": 19.685458235566
                },
                {
                    "stopId": "S276R",
                    "name_en": "Melitsa",
                    "name_gr": "Μελίτσα",
                    "lat": 39.794476561864,
                    "lng": 19.697650579951
                },
                {
                    "stopId": "S272R",
                    "name_en": "Sidari (The Three Little Pigs)",
                    "name_gr": "Σιδάρι (The Three Little Pigs)",
                    "lat": 39.792062416664,
                    "lng": 19.703319190337
                },
                {
                    "stopId": "S271R",
                    "name_en": "Sidari (Paradise Hotel)",
                    "name_gr": "Σιδάρι (Paradise Hotel)",
                    "lat": 39.790409389878,
                    "lng": 19.708027396312
                },
                {
                    "stopId": "S270R",
                    "name_en": "Katerina Gift Shop",
                    "name_gr": "Κατερίνα gift shop",
                    "lat": 39.788025684242,
                    "lng": 19.708449056768
                },
                {
                    "stopId": "S255R",
                    "name_en": "Sidari Masoutis (Arillas Junction)",
                    "name_gr": "Σιδάρι Masoutis (Διασταύρωση Αρίλλας)",
                    "lat": 39.783074952473,
                    "lng": 19.708161049111
                },
                {
                    "stopId": "S254R",
                    "name_en": "Karousades Junction",
                    "name_gr": "Διασταύρωση Καρουσάδων",
                    "lat": 39.776298662614,
                    "lng": 19.711254231935
                },
                {
                    "stopId": "S253R",
                    "name_en": "Livadi",
                    "name_gr": "Λιβάδι",
                    "lat": 39.770358419644,
                    "lng": 19.714128199736
                },
                {
                    "stopId": "S252R",
                    "name_en": "Livadi Pagonas",
                    "name_gr": "Λιβάδι Παγώνας",
                    "lat": 39.767346060361,
                    "lng": 19.716365433922
                },
                {
                    "stopId": "S251R",
                    "name_en": "Velonades City Hall",
                    "name_gr": "Βελονάδες Δημαρχείο",
                    "lat": 39.753824851347,
                    "lng": 19.717416022939
                },
                {
                    "stopId": "S249R",
                    "name_en": "Velonades Junction",
                    "name_gr": "Διασταύρωση Βελονάδων",
                    "lat": 39.750895041633,
                    "lng": 19.715315054316
                },
                {
                    "stopId": "S250",
                    "name_en": "Velonades",
                    "name_gr": "Βελονάδες",
                    "lat": 39.752262724231,
                    "lng": 19.710163077457
                },
                {
                    "stopId": "S249R",
                    "name_en": "Velonades Junction",
                    "name_gr": "Διασταύρωση Βελονάδων",
                    "lat": 39.750895041633,
                    "lng": 19.715315054316
                },
                {
                    "stopId": "S247R",
                    "name_en": "Psathylas",
                    "name_gr": "Ψαθύλας",
                    "lat": 39.745906747585,
                    "lng": 19.717472023356
                },
                {
                    "stopId": "S244R",
                    "name_en": "Mesaria",
                    "name_gr": "Μεσαριά",
                    "lat": 39.739365933142,
                    "lng": 19.723721587065
                },
                {
                    "stopId": "S243R",
                    "name_en": "Agios Athanasios 2",
                    "name_gr": "Άγιος Αθανάσιος 2",
                    "lat": 39.729281622379,
                    "lng": 19.723316656998
                },
                {
                    "stopId": "S242R",
                    "name_en": "Agios Athanasios 1",
                    "name_gr": "Άγιος Αθανάσιος 1",
                    "lat": 39.725691403606,
                    "lng": 19.72123377611
                },
                {
                    "stopId": "S241R",
                    "name_en": "Agios Athanasios Pharmacy",
                    "name_gr": "Άγιος Αθανάσιος φαρμακείο",
                    "lat": 39.724280503559,
                    "lng": 19.721450823337
                },
                {
                    "stopId": "S228R",
                    "name_en": "Agros Fountain",
                    "name_gr": "Αγρός βρύση",
                    "lat": 39.722824705086,
                    "lng": 19.724001643833
                },
                {
                    "stopId": "S217R",
                    "name_en": "Agros Supermarket",
                    "name_gr": "Αγρός super market",
                    "lat": 39.720473061367,
                    "lng": 19.724779671347
                },
                {
                    "stopId": "S216R",
                    "name_en": "Agros School",
                    "name_gr": "Αγρός σχολείο",
                    "lat": 39.718980315017,
                    "lng": 19.725847015675
                },
                {
                    "stopId": "S215R",
                    "name_en": "Agros City Hall",
                    "name_gr": "Αγρός Δημαρχείο",
                    "lat": 39.718088625327,
                    "lng": 19.726673547149
                },
                {
                    "stopId": "S201R",
                    "name_en": "Arkadades",
                    "name_gr": "Αρκαδάδες",
                    "lat": 39.709507991472,
                    "lng": 19.730506342509
                },
                {
                    "stopId": "S200R",
                    "name_en": "Kastellanoi Gyrou",
                    "name_gr": "Καστελλάνοι Γύρου",
                    "lat": 39.710203294698,
                    "lng": 19.73392488285
                },
                {
                    "stopId": "S155R",
                    "name_en": "Troubeta Junction",
                    "name_gr": "Διασταύρωση Τρουμπέτα",
                    "lat": 39.709758143727,
                    "lng": 19.744617468643
                },
                {
                    "stopId": "S154R",
                    "name_en": "Troubetas",
                    "name_gr": "Τρουμπέτας",
                    "lat": 39.706506513007,
                    "lng": 19.747491680599
                },
                {
                    "stopId": "S153R",
                    "name_en": "Doukades Junction",
                    "name_gr": "Διασταύρωση Δουκάδων",
                    "lat": 39.700712282397,
                    "lng": 19.76289250474
                },
                {
                    "stopId": "S152R",
                    "name_en": "Skripero 2",
                    "name_gr": "Σκριπερό 2",
                    "lat": 39.700583474122,
                    "lng": 19.770538264079
                },
                {
                    "stopId": "S151R",
                    "name_en": "Skripero 1",
                    "name_gr": "Σκριπερό 1",
                    "lat": 39.699832348331,
                    "lng": 19.7751620466
                },
                {
                    "stopId": "S150R",
                    "name_en": "Skripero Gas Station (Pamfilis)",
                    "name_gr": "Βενζινάδικο Σκριπερού (Παμφίλη)",
                    "lat": 39.697821679918,
                    "lng": 19.783423500187
                },
                {
                    "stopId": "S149R",
                    "name_en": "Tsolou",
                    "name_gr": "Τσολού",
                    "lat": 39.69480178069,
                    "lng": 19.792863111693
                },
                {
                    "stopId": "S148R",
                    "name_en": "Xylon",
                    "name_gr": "Ξύλον",
                    "lat": 39.690625654693,
                    "lng": 19.799183721293
                },
                {
                    "stopId": "S118R",
                    "name_en": "Giatrones",
                    "name_gr": "Γιατρόνες",
                    "lat": 39.679905569643,
                    "lng": 19.804467957178
                },
                {
                    "stopId": "S117R",
                    "name_en": "Mantra",
                    "name_gr": "Μάντρα",
                    "lat": 39.678663440786,
                    "lng": 19.808666588627
                },
                {
                    "stopId": "S116R",
                    "name_en": "Loutsiola",
                    "name_gr": "Λουτσιόλα",
                    "lat": 39.670644339485,
                    "lng": 19.819501675181
                },
                {
                    "stopId": "S115R",
                    "name_en": "Sgombou",
                    "name_gr": "Σγόμπου",
                    "lat": 39.670681666751,
                    "lng": 19.823458601985
                },
                {
                    "stopId": "S114R",
                    "name_en": "Fiori",
                    "name_gr": "Φιόρι",
                    "lat": 39.668616222459,
                    "lng": 19.827479055172
                },
                {
                    "stopId": "S113R",
                    "name_en": "Emeral",
                    "name_gr": "Emeral",
                    "lat": 39.665162809895,
                    "lng": 19.833458056918
                },
                {
                    "stopId": "S112R",
                    "name_en": "Tzavros Sidari",
                    "name_gr": "Τζάβρος Σιδάρι",
                    "lat": 39.661933111749,
                    "lng": 19.837679753789
                },
                {
                    "stopId": "S024R",
                    "name_en": "Cook's Club Corfu",
                    "name_gr": "Cook's Club Corfu",
                    "lat": 39.657701060314,
                    "lng": 19.838931051877
                },
                {
                    "stopId": "S023R",
                    "name_en": "Korkyra",
                    "name_gr": "Κόρκυρα",
                    "lat": 39.654945404339,
                    "lng": 19.840292641423
                },
                {
                    "stopId": "S022R",
                    "name_en": "Gouvia",
                    "name_gr": "Γουβιά",
                    "lat": 39.651461259857,
                    "lng": 19.842671796004
                },
                {
                    "stopId": "S021R",
                    "name_en": "Priftis House",
                    "name_gr": "Σπίτι Πρίφτη",
                    "lat": 39.648141179686,
                    "lng": 19.846039706601
                },
                {
                    "stopId": "S020R",
                    "name_en": "Hospital",
                    "name_gr": "Νοσοκομείο",
                    "lat": 39.644532831327,
                    "lng": 19.850543211017
                },
                {
                    "stopId": "S019R",
                    "name_en": "Pipilas",
                    "name_gr": "Πίπιλας",
                    "lat": 39.644363945853,
                    "lng": 19.854248884401
                },
                {
                    "stopId": "S017R",
                    "name_en": "Sotiriotissa",
                    "name_gr": "Σωτηριώτισα",
                    "lat": 39.644753645835,
                    "lng": 19.859620892917
                },
                {
                    "stopId": "S016R",
                    "name_en": "Kineziko",
                    "name_gr": "Κινέζικο",
                    "lat": 39.640395563479,
                    "lng": 19.86382934442
                },
                {
                    "stopId": "S014R",
                    "name_en": "Agia Aikaterini",
                    "name_gr": "Αγία Αικατερίνη",
                    "lat": 39.636742707174,
                    "lng": 19.871779138799
                },
                {
                    "stopId": "S013R",
                    "name_en": "Magazaki",
                    "name_gr": "Μαγαζάκι",
                    "lat": 39.634742139652,
                    "lng": 19.876345989751
                },
                {
                    "stopId": "S011R",
                    "name_en": "Eforeia",
                    "name_gr": "Εφορεία",
                    "lat": 39.631424331853,
                    "lng": 19.883144122998
                },
                {
                    "stopId": "S005R",
                    "name_en": "First Commercial",
                    "name_gr": "Πρώτη εμπορικoύ",
                    "lat": 39.630071931204,
                    "lng": 19.895982079554
                },
                {
                    "stopId": "S004R",
                    "name_en": "Port",
                    "name_gr": "Λιμάνι",
                    "lat": 39.626670378129,
                    "lng": 19.904473873609
                },
                {
                    "stopId": "S003R",
                    "name_en": "Port Authority",
                    "name_gr": "Λιμεναρχείο",
                    "lat": 39.626481986654,
                    "lng": 19.906022650467
                },
                {
                    "stopId": "S532R",
                    "name_en": "Psychiatriou Square",
                    "name_gr": "Πλατεία Ψυχιατρείου",
                    "lat": 39.621379337965,
                    "lng": 19.916453899358
                },
                {
                    "stopId": "S000",
                    "name_en": "Green Buses Station",
                    "name_gr": "Σταθμός Υπεραστικού ΚΤΕΛ",
                    "lat": 39.615962272858,
                    "lng": 19.912009202807
                }
            ]
        },
        "A1_Agios Stefanos  Corfu (from Agios Stefanos port via Agros)": {
            "direction": "Corfu -> From Agios Stefanos Port",
            "stops": [
                {
                    "stopId": "S291",
                    "name_en": "Agios Stefanos Port",
                    "name_gr": "Άγιος Στέφανος λιμάνι",
                    "lat": 39.752451030563,
                    "lng": 19.632453980044
                },
                {
                    "stopId": "S290R",
                    "name_en": "Agios Stefanos Church",
                    "name_gr": "Άγιος Στέφανος εκκλησία",
                    "lat": 39.7540191,
                    "lng": 19.6395078
                },
                {
                    "stopId": "S289R",
                    "name_en": "Agios Stefanos Hotel Nafsika",
                    "name_gr": "Άγιος Στέφανος Hotel Nafsika",
                    "lat": 39.753898207528,
                    "lng": 19.641462597292
                },
                {
                    "stopId": "S288R",
                    "name_en": "Agios Stefanos Bakery",
                    "name_gr": "Άγιος Στέφανος φούρνος",
                    "lat": 39.753809100869,
                    "lng": 19.645968908774
                },
                {
                    "stopId": "S287R",
                    "name_en": "Agios Stefanos Sunset studios",
                    "name_gr": "Άγιος Στέφανος Sunset studios",
                    "lat": 39.756105767659,
                    "lng": 19.646341131353
                },
                {
                    "stopId": "S286R",
                    "name_en": "Agios Stefanos Kapetanios Apartments",
                    "name_gr": "Άγιος Στέφανος Kapetanios Apartments",
                    "lat": 39.758137615208,
                    "lng": 19.646294750338
                },
                {
                    "stopId": "S285R",
                    "name_en": "Agios Stefanos Romanza Hotel",
                    "name_gr": "Άγιος Στέφανος Romanza Hotel",
                    "lat": 39.759392994186,
                    "lng": 19.646836310515
                },
                {
                    "stopId": "S284R",
                    "name_en": "Elaiourgia Avlioton",
                    "name_gr": "Ελαιουργία Αυλιωτών",
                    "lat": 39.765991425753,
                    "lng": 19.659645007719
                },
                {
                    "stopId": "S280R",
                    "name_en": "Mylos Avlioton",
                    "name_gr": "Μύλος Αυλιωτών",
                    "lat": 39.777393865176,
                    "lng": 19.677330439493
                },
                {
                    "stopId": "S274R",
                    "name_en": "Peroulades Junction",
                    "name_gr": "Διασταύρωση Περουλάδων",
                    "lat": 39.786313518435,
                    "lng": 19.690378719113
                },
                {
                    "stopId": "S273R",
                    "name_en": "Sidari Papadatou",
                    "name_gr": "Σιδάρι Παπαδάτου",
                    "lat": 39.791159671368,
                    "lng": 19.698930861812
                },
                {
                    "stopId": "S272R",
                    "name_en": "Sidari (The Three Little Pigs)",
                    "name_gr": "Σιδάρι (The Three Little Pigs)",
                    "lat": 39.792062416664,
                    "lng": 19.703319190337
                },
                {
                    "stopId": "S271R",
                    "name_en": "Sidari (Paradise Hotel)",
                    "name_gr": "Σιδάρι (Paradise Hotel)",
                    "lat": 39.790409389878,
                    "lng": 19.708027396312
                },
                {
                    "stopId": "S270R",
                    "name_en": "Katerina Gift Shop",
                    "name_gr": "Κατερίνα gift shop",
                    "lat": 39.788025684242,
                    "lng": 19.708449056768
                },
                {
                    "stopId": "S255R",
                    "name_en": "Sidari Masoutis (Arillas Junction)",
                    "name_gr": "Σιδάρι Masoutis (Διασταύρωση Αρίλλας)",
                    "lat": 39.783074952473,
                    "lng": 19.708161049111
                },
                {
                    "stopId": "S254R",
                    "name_en": "Karousades Junction",
                    "name_gr": "Διασταύρωση Καρουσάδων",
                    "lat": 39.776298662614,
                    "lng": 19.711254231935
                },
                {
                    "stopId": "S253R",
                    "name_en": "Livadi",
                    "name_gr": "Λιβάδι",
                    "lat": 39.770358419644,
                    "lng": 19.714128199736
                },
                {
                    "stopId": "S252R",
                    "name_en": "Livadi Pagonas",
                    "name_gr": "Λιβάδι Παγώνας",
                    "lat": 39.767346060361,
                    "lng": 19.716365433922
                },
                {
                    "stopId": "S251R",
                    "name_en": "Velonades City Hall",
                    "name_gr": "Βελονάδες Δημαρχείο",
                    "lat": 39.753824851347,
                    "lng": 19.717416022939
                },
                {
                    "stopId": "S249R",
                    "name_en": "Velonades Junction",
                    "name_gr": "Διασταύρωση Βελονάδων",
                    "lat": 39.750895041633,
                    "lng": 19.715315054316
                },
                {
                    "stopId": "S247R",
                    "name_en": "Psathylas",
                    "name_gr": "Ψαθύλας",
                    "lat": 39.745906747585,
                    "lng": 19.717472023356
                },
                {
                    "stopId": "S244R",
                    "name_en": "Mesaria",
                    "name_gr": "Μεσαριά",
                    "lat": 39.739365933142,
                    "lng": 19.723721587065
                },
                {
                    "stopId": "S243R",
                    "name_en": "Agios Athanasios 2",
                    "name_gr": "Άγιος Αθανάσιος 2",
                    "lat": 39.729281622379,
                    "lng": 19.723316656998
                },
                {
                    "stopId": "S242R",
                    "name_en": "Agios Athanasios 1",
                    "name_gr": "Άγιος Αθανάσιος 1",
                    "lat": 39.725691403606,
                    "lng": 19.72123377611
                },
                {
                    "stopId": "S241R",
                    "name_en": "Agios Athanasios Pharmacy",
                    "name_gr": "Άγιος Αθανάσιος φαρμακείο",
                    "lat": 39.724280503559,
                    "lng": 19.721450823337
                },
                {
                    "stopId": "S228R",
                    "name_en": "Agros Fountain",
                    "name_gr": "Αγρός βρύση",
                    "lat": 39.722824705086,
                    "lng": 19.724001643833
                },
                {
                    "stopId": "S217R",
                    "name_en": "Agros Supermarket",
                    "name_gr": "Αγρός super market",
                    "lat": 39.720473061367,
                    "lng": 19.724779671347
                },
                {
                    "stopId": "S216R",
                    "name_en": "Agros School",
                    "name_gr": "Αγρός σχολείο",
                    "lat": 39.718980315017,
                    "lng": 19.725847015675
                },
                {
                    "stopId": "S215R",
                    "name_en": "Agros City Hall",
                    "name_gr": "Αγρός Δημαρχείο",
                    "lat": 39.718088625327,
                    "lng": 19.726673547149
                },
                {
                    "stopId": "S201R",
                    "name_en": "Arkadades",
                    "name_gr": "Αρκαδάδες",
                    "lat": 39.709507991472,
                    "lng": 19.730506342509
                },
                {
                    "stopId": "S200R",
                    "name_en": "Kastellanoi Gyrou",
                    "name_gr": "Καστελλάνοι Γύρου",
                    "lat": 39.710203294698,
                    "lng": 19.73392488285
                },
                {
                    "stopId": "S155R",
                    "name_en": "Troubeta Junction",
                    "name_gr": "Διασταύρωση Τρουμπέτα",
                    "lat": 39.709758143727,
                    "lng": 19.744617468643
                },
                {
                    "stopId": "S154R",
                    "name_en": "Troubetas",
                    "name_gr": "Τρουμπέτας",
                    "lat": 39.706506513007,
                    "lng": 19.747491680599
                },
                {
                    "stopId": "S153R",
                    "name_en": "Doukades Junction",
                    "name_gr": "Διασταύρωση Δουκάδων",
                    "lat": 39.700712282397,
                    "lng": 19.76289250474
                },
                {
                    "stopId": "S152R",
                    "name_en": "Skripero 2",
                    "name_gr": "Σκριπερό 2",
                    "lat": 39.700583474122,
                    "lng": 19.770538264079
                },
                {
                    "stopId": "S151R",
                    "name_en": "Skripero 1",
                    "name_gr": "Σκριπερό 1",
                    "lat": 39.699832348331,
                    "lng": 19.7751620466
                },
                {
                    "stopId": "S150R",
                    "name_en": "Skripero Gas Station (Pamfilis)",
                    "name_gr": "Βενζινάδικο Σκριπερού (Παμφίλη)",
                    "lat": 39.697821679918,
                    "lng": 19.783423500187
                },
                {
                    "stopId": "S149R",
                    "name_en": "Tsolou",
                    "name_gr": "Τσολού",
                    "lat": 39.69480178069,
                    "lng": 19.792863111693
                },
                {
                    "stopId": "S148R",
                    "name_en": "Xylon",
                    "name_gr": "Ξύλον",
                    "lat": 39.690625654693,
                    "lng": 19.799183721293
                },
                {
                    "stopId": "S118R",
                    "name_en": "Giatrones",
                    "name_gr": "Γιατρόνες",
                    "lat": 39.679905569643,
                    "lng": 19.804467957178
                },
                {
                    "stopId": "S117R",
                    "name_en": "Mantra",
                    "name_gr": "Μάντρα",
                    "lat": 39.678663440786,
                    "lng": 19.808666588627
                },
                {
                    "stopId": "S116R",
                    "name_en": "Loutsiola",
                    "name_gr": "Λουτσιόλα",
                    "lat": 39.670644339485,
                    "lng": 19.819501675181
                },
                {
                    "stopId": "S115R",
                    "name_en": "Sgombou",
                    "name_gr": "Σγόμπου",
                    "lat": 39.670681666751,
                    "lng": 19.823458601985
                },
                {
                    "stopId": "S114R",
                    "name_en": "Fiori",
                    "name_gr": "Φιόρι",
                    "lat": 39.668616222459,
                    "lng": 19.827479055172
                },
                {
                    "stopId": "S113R",
                    "name_en": "Emeral",
                    "name_gr": "Emeral",
                    "lat": 39.665162809895,
                    "lng": 19.833458056918
                },
                {
                    "stopId": "S112R",
                    "name_en": "Tzavros Sidari",
                    "name_gr": "Τζάβρος Σιδάρι",
                    "lat": 39.661933111749,
                    "lng": 19.837679753789
                },
                {
                    "stopId": "S024R",
                    "name_en": "Cook's Club Corfu",
                    "name_gr": "Cook's Club Corfu",
                    "lat": 39.657701060314,
                    "lng": 19.838931051877
                },
                {
                    "stopId": "S023R",
                    "name_en": "Korkyra",
                    "name_gr": "Κόρκυρα",
                    "lat": 39.654945404339,
                    "lng": 19.840292641423
                },
                {
                    "stopId": "S022R",
                    "name_en": "Gouvia",
                    "name_gr": "Γουβιά",
                    "lat": 39.651461259857,
                    "lng": 19.842671796004
                },
                {
                    "stopId": "S021R",
                    "name_en": "Priftis House",
                    "name_gr": "Σπίτι Πρίφτη",
                    "lat": 39.648141179686,
                    "lng": 19.846039706601
                },
                {
                    "stopId": "S020R",
                    "name_en": "Hospital",
                    "name_gr": "Νοσοκομείο",
                    "lat": 39.644532831327,
                    "lng": 19.850543211017
                },
                {
                    "stopId": "S019R",
                    "name_en": "Pipilas",
                    "name_gr": "Πίπιλας",
                    "lat": 39.644363945853,
                    "lng": 19.854248884401
                },
                {
                    "stopId": "S017R",
                    "name_en": "Sotiriotissa",
                    "name_gr": "Σωτηριώτισα",
                    "lat": 39.644753645835,
                    "lng": 19.859620892917
                },
                {
                    "stopId": "S016R",
                    "name_en": "Kineziko",
                    "name_gr": "Κινέζικο",
                    "lat": 39.640395563479,
                    "lng": 19.86382934442
                },
                {
                    "stopId": "S014R",
                    "name_en": "Agia Aikaterini",
                    "name_gr": "Αγία Αικατερίνη",
                    "lat": 39.636742707174,
                    "lng": 19.871779138799
                },
                {
                    "stopId": "S013R",
                    "name_en": "Magazaki",
                    "name_gr": "Μαγαζάκι",
                    "lat": 39.634742139652,
                    "lng": 19.876345989751
                },
                {
                    "stopId": "S011R",
                    "name_en": "Eforeia",
                    "name_gr": "Εφορεία",
                    "lat": 39.631424331853,
                    "lng": 19.883144122998
                },
                {
                    "stopId": "S009R",
                    "name_en": "Potamou Junction",
                    "name_gr": "Διασταύρωση Ποταμού",
                    "lat": 39.624461537211,
                    "lng": 19.890866368596
                },
                {
                    "stopId": "S008R",
                    "name_en": "Kapoukinoi",
                    "name_gr": "Καπουκίνοι",
                    "lat": 39.621521800631,
                    "lng": 19.903639299293
                },
                {
                    "stopId": "S007R",
                    "name_en": "Platytera",
                    "name_gr": "Πλατυτέρα",
                    "lat": 39.622164184543,
                    "lng": 19.910611261142
                },
                {
                    "stopId": "S532R",
                    "name_en": "Psychiatriou Square",
                    "name_gr": "Πλατεία Ψυχιατρείου",
                    "lat": 39.621379337965,
                    "lng": 19.916453899358
                },
                {
                    "stopId": "S000",
                    "name_en": "Green Buses Station",
                    "name_gr": "Σταθμός Υπεραστικού ΚΤΕΛ",
                    "lat": 39.615962272858,
                    "lng": 19.912009202807
                }
            ]
        },
        "A1_Agios Stefanos  Corfu (from Agios Stefanos port via Agros and port)": {
            "direction": "Corfu -> From Agios Stefanos Port",
            "stops": [
                {
                    "stopId": "S291",
                    "name_en": "Agios Stefanos Port",
                    "name_gr": "Άγιος Στέφανος λιμάνι",
                    "lat": 39.752451030563,
                    "lng": 19.632453980044
                },
                {
                    "stopId": "S290R",
                    "name_en": "Agios Stefanos Church",
                    "name_gr": "Άγιος Στέφανος εκκλησία",
                    "lat": 39.7540191,
                    "lng": 19.6395078
                },
                {
                    "stopId": "S289R",
                    "name_en": "Agios Stefanos Hotel Nafsika",
                    "name_gr": "Άγιος Στέφανος Hotel Nafsika",
                    "lat": 39.753898207528,
                    "lng": 19.641462597292
                },
                {
                    "stopId": "S288R",
                    "name_en": "Agios Stefanos Bakery",
                    "name_gr": "Άγιος Στέφανος φούρνος",
                    "lat": 39.753809100869,
                    "lng": 19.645968908774
                },
                {
                    "stopId": "S287R",
                    "name_en": "Agios Stefanos Sunset studios",
                    "name_gr": "Άγιος Στέφανος Sunset studios",
                    "lat": 39.756105767659,
                    "lng": 19.646341131353
                },
                {
                    "stopId": "S286R",
                    "name_en": "Agios Stefanos Kapetanios Apartments",
                    "name_gr": "Άγιος Στέφανος Kapetanios Apartments",
                    "lat": 39.758137615208,
                    "lng": 19.646294750338
                },
                {
                    "stopId": "S285R",
                    "name_en": "Agios Stefanos Romanza Hotel",
                    "name_gr": "Άγιος Στέφανος Romanza Hotel",
                    "lat": 39.759392994186,
                    "lng": 19.646836310515
                },
                {
                    "stopId": "S284R",
                    "name_en": "Elaiourgia Avlioton",
                    "name_gr": "Ελαιουργία Αυλιωτών",
                    "lat": 39.765991425753,
                    "lng": 19.659645007719
                },
                {
                    "stopId": "S280R",
                    "name_en": "Mylos Avlioton",
                    "name_gr": "Μύλος Αυλιωτών",
                    "lat": 39.777393865176,
                    "lng": 19.677330439493
                },
                {
                    "stopId": "S274R",
                    "name_en": "Peroulades Junction",
                    "name_gr": "Διασταύρωση Περουλάδων",
                    "lat": 39.786313518435,
                    "lng": 19.690378719113
                },
                {
                    "stopId": "S273R",
                    "name_en": "Sidari Papadatou",
                    "name_gr": "Σιδάρι Παπαδάτου",
                    "lat": 39.791159671368,
                    "lng": 19.698930861812
                },
                {
                    "stopId": "S272R",
                    "name_en": "Sidari (The Three Little Pigs)",
                    "name_gr": "Σιδάρι (The Three Little Pigs)",
                    "lat": 39.792062416664,
                    "lng": 19.703319190337
                },
                {
                    "stopId": "S271R",
                    "name_en": "Sidari (Paradise Hotel)",
                    "name_gr": "Σιδάρι (Paradise Hotel)",
                    "lat": 39.790409389878,
                    "lng": 19.708027396312
                },
                {
                    "stopId": "S270R",
                    "name_en": "Katerina Gift Shop",
                    "name_gr": "Κατερίνα gift shop",
                    "lat": 39.788025684242,
                    "lng": 19.708449056768
                },
                {
                    "stopId": "S255R",
                    "name_en": "Sidari Masoutis (Arillas Junction)",
                    "name_gr": "Σιδάρι Masoutis (Διασταύρωση Αρίλλας)",
                    "lat": 39.783074952473,
                    "lng": 19.708161049111
                },
                {
                    "stopId": "S254R",
                    "name_en": "Karousades Junction",
                    "name_gr": "Διασταύρωση Καρουσάδων",
                    "lat": 39.776298662614,
                    "lng": 19.711254231935
                },
                {
                    "stopId": "S253R",
                    "name_en": "Livadi",
                    "name_gr": "Λιβάδι",
                    "lat": 39.770358419644,
                    "lng": 19.714128199736
                },
                {
                    "stopId": "S252R",
                    "name_en": "Livadi Pagonas",
                    "name_gr": "Λιβάδι Παγώνας",
                    "lat": 39.767346060361,
                    "lng": 19.716365433922
                },
                {
                    "stopId": "S251R",
                    "name_en": "Velonades City Hall",
                    "name_gr": "Βελονάδες Δημαρχείο",
                    "lat": 39.753824851347,
                    "lng": 19.717416022939
                },
                {
                    "stopId": "S249R",
                    "name_en": "Velonades Junction",
                    "name_gr": "Διασταύρωση Βελονάδων",
                    "lat": 39.750895041633,
                    "lng": 19.715315054316
                },
                {
                    "stopId": "S247R",
                    "name_en": "Psathylas",
                    "name_gr": "Ψαθύλας",
                    "lat": 39.745906747585,
                    "lng": 19.717472023356
                },
                {
                    "stopId": "S244R",
                    "name_en": "Mesaria",
                    "name_gr": "Μεσαριά",
                    "lat": 39.739365933142,
                    "lng": 19.723721587065
                },
                {
                    "stopId": "S243R",
                    "name_en": "Agios Athanasios 2",
                    "name_gr": "Άγιος Αθανάσιος 2",
                    "lat": 39.729281622379,
                    "lng": 19.723316656998
                },
                {
                    "stopId": "S242R",
                    "name_en": "Agios Athanasios 1",
                    "name_gr": "Άγιος Αθανάσιος 1",
                    "lat": 39.725691403606,
                    "lng": 19.72123377611
                },
                {
                    "stopId": "S241R",
                    "name_en": "Agios Athanasios Pharmacy",
                    "name_gr": "Άγιος Αθανάσιος φαρμακείο",
                    "lat": 39.724280503559,
                    "lng": 19.721450823337
                },
                {
                    "stopId": "S228R",
                    "name_en": "Agros Fountain",
                    "name_gr": "Αγρός βρύση",
                    "lat": 39.722824705086,
                    "lng": 19.724001643833
                },
                {
                    "stopId": "S217R",
                    "name_en": "Agros Supermarket",
                    "name_gr": "Αγρός super market",
                    "lat": 39.720473061367,
                    "lng": 19.724779671347
                },
                {
                    "stopId": "S216R",
                    "name_en": "Agros School",
                    "name_gr": "Αγρός σχολείο",
                    "lat": 39.718980315017,
                    "lng": 19.725847015675
                },
                {
                    "stopId": "S215R",
                    "name_en": "Agros City Hall",
                    "name_gr": "Αγρός Δημαρχείο",
                    "lat": 39.718088625327,
                    "lng": 19.726673547149
                },
                {
                    "stopId": "S201R",
                    "name_en": "Arkadades",
                    "name_gr": "Αρκαδάδες",
                    "lat": 39.709507991472,
                    "lng": 19.730506342509
                },
                {
                    "stopId": "S200R",
                    "name_en": "Kastellanoi Gyrou",
                    "name_gr": "Καστελλάνοι Γύρου",
                    "lat": 39.710203294698,
                    "lng": 19.73392488285
                },
                {
                    "stopId": "S155R",
                    "name_en": "Troubeta Junction",
                    "name_gr": "Διασταύρωση Τρουμπέτα",
                    "lat": 39.709758143727,
                    "lng": 19.744617468643
                },
                {
                    "stopId": "S154R",
                    "name_en": "Troubetas",
                    "name_gr": "Τρουμπέτας",
                    "lat": 39.706506513007,
                    "lng": 19.747491680599
                },
                {
                    "stopId": "S153R",
                    "name_en": "Doukades Junction",
                    "name_gr": "Διασταύρωση Δουκάδων",
                    "lat": 39.700712282397,
                    "lng": 19.76289250474
                },
                {
                    "stopId": "S152R",
                    "name_en": "Skripero 2",
                    "name_gr": "Σκριπερό 2",
                    "lat": 39.700583474122,
                    "lng": 19.770538264079
                },
                {
                    "stopId": "S151R",
                    "name_en": "Skripero 1",
                    "name_gr": "Σκριπερό 1",
                    "lat": 39.699832348331,
                    "lng": 19.7751620466
                },
                {
                    "stopId": "S150R",
                    "name_en": "Skripero Gas Station (Pamfilis)",
                    "name_gr": "Βενζινάδικο Σκριπερού (Παμφίλη)",
                    "lat": 39.697821679918,
                    "lng": 19.783423500187
                },
                {
                    "stopId": "S149R",
                    "name_en": "Tsolou",
                    "name_gr": "Τσολού",
                    "lat": 39.69480178069,
                    "lng": 19.792863111693
                },